[{"_id":"5a764d04e6b3984f243aa4a4","name":"Athabasca Healthcare Center","inLine":0,"onTheWay":0,"lat":54.71724,"lng":-113.2540559,"address":"3100 48 Ave, Athabasca, AB T9S 1M9, Canada"},{"_id":"5a764d04e6b3984f243aa4a5","name":"Banff Mineral Springs Hospital","inLine":0,"onTheWay":0,"lat":51.1790455,"lng":-115.5762576,"address":"305 Lynx St, Banff, AB T1L 1H7, Canada"},{"_id":"5a764d04e6b3984f243aa4a6","name":"Oilfields General Hospital","inLine":0,"onTheWay":0,"lat":50.6781016,"lng":-114.235151,"address":"717 Government Rd, Black Diamond, AB T0L 0H0, Canada"},{"_id":"5a764d04e6b3984f243aa4a7","name":"Cochrane Community Health Centre","inLine":0,"onTheWay":0,"lat":51.18467829999999,"lng":-114.4738775,"address":"60 Grande Blvd, Cochrane, AB T4C 0S4, Canada"},{"_id":"5a764d04e6b3984f243aa4a8","name":"Bow Island Health Centre","inLine":0,"onTheWay":0,"lat":49.865624,"lng":-111.378438,"address":"938 Centre St, Bow Island, AB T0K 0G0, Canada"},{"_id":"5a764d04e6b3984f243aa4a9","name":"Barrhead Healthcare Centre","inLine":0,"onTheWay":0,"lat":54.1189739,"lng":-114.4000054,"address":"4815 51 Ave, Barrhead, AB T7N 1M1, Canada"},{"_id":"5a764d04e6b3984f243aa4aa","name":"Peter Lougheed Centre (PLC)","inLine":0,"onTheWay":0,"lat":51.0789832,"lng":-113.9839451,"address":"3500 26 Ave NE, Calgary, AB T1Y 6J4, Canada"},{"_id":"5a764d04e6b3984f243aa4ab","name":"Brooks Health Centre","inLine":0,"onTheWay":0,"lat":50.5684258,"lng":-111.8895767,"address":"440 3 St E, Brooks, AB T1R 0G5, Canada"},{"_id":"5a764d04e6b3984f243aa4ac","name":"Alberta Children's Hospital (ACH)","inLine":0,"onTheWay":0,"lat":51.0743516,"lng":-114.1479442,"address":"2888 Shaganappi Trail NW, Calgary, AB T3B 6A8, Canada"},{"_id":"5a764d04e6b3984f243aa4ad","name":"South Health Campus (SHC)","inLine":0,"onTheWay":0,"lat":50.8819537,"lng":-113.9518929,"address":"4448 Front St SE, Calgary, AB t3m 1m4, Canada"},{"_id":"5a764d04e6b3984f243aa4ae","name":"Devon General Hospital","inLine":0,"onTheWay":0,"lat":53.3515216,"lng":-113.7310094,"address":"101 Erie St S, Devon, AB T9G 1A6, Canada"},{"_id":"5a764d04e6b3984f243aa4af","name":"Boyle Healthcare Centre","inLine":0,"onTheWay":0,"lat":54.5883358,"lng":-112.8014498,"address":"5206 Hospital Ave, Boyle, AB T0A 0M0, Canada"},{"_id":"5a764d04e6b3984f243aa4b0","name":"East Calgary Health Centre (ECHC)","inLine":0,"onTheWay":0,"lat":51.0449223,"lng":-113.9668105,"address":"4715 8 Ave SE, Calgary, AB T2A 3N4, Canada"},{"_id":"5a764d04e6b3984f243aa4b1","name":"Our Lady of the Rosary Hospital","inLine":0,"onTheWay":0,"lat":46.3955327,"lng":-105.828435,"address":"2600 Wilson St, Miles City, MT 59301, USA"},{"_id":"5a764d04e6b3984f243aa4b2","name":"Crowsnest Pass Hospital","inLine":0,"onTheWay":0,"lat":49.6162753,"lng":-114.458498,"address":"2001 107 St, Blairmore, AB T0K 0E0, Canada"},{"_id":"5a764d04e6b3984f243aa4b3","name":"Glenrose Rehabilitation Hospital","inLine":0,"onTheWay":0,"lat":53.560136,"lng":-113.496168,"address":"10230 111 Avenue Northwest, Edmonton, AB T5G 0B7, Canada"},{"_id":"5a764d04e6b3984f243aa4b4","name":"Cross Cancer Institute","inLine":0,"onTheWay":0,"lat":53.5182625,"lng":-113.5310786,"address":"11560 University Ave, Edmonton, AB T6G 1Z2, Canada"},{"_id":"5a764d04e6b3984f243aa4b5","name":"Edmonton Clinic","inLine":0,"onTheWay":0,"lat":53.5189515,"lng":-113.5276209,"address":"Kaye Edmonton Clinic, 11400 University Ave, Edmonton, AB T6G 1Z1, Canada"},{"_id":"5a764d04e6b3984f243aa4b6","name":"Drumheller Health Centre","inLine":0,"onTheWay":0,"lat":51.4698073,"lng":-112.7259343,"address":"351 9 St NW, Drumheller, AB T0J 0Y1, Canada"},{"_id":"5a764d04e6b3984f243aa4b7","name":"Elk Point Healthcare Centre","inLine":0,"onTheWay":0,"lat":53.8977368,"lng":-110.9065832,"address":"5310 50 Avenue NE, Elk Point, AB T0A 1A0, Canada"},{"_id":"5a764d04e6b3984f243aa4b8","name":"Leduc Community Hospital & Health Centre","inLine":0,"onTheWay":0,"lat":53.2548182,"lng":-113.5454391,"address":"4210 48 St, Leduc, AB T9E 5Z3, Canada"},{"_id":"5a764d04e6b3984f243aa4b9","name":"Claresholm General Hospital","inLine":0,"onTheWay":0,"lat":50.01886640000001,"lng":-113.5827595,"address":"221 43 Ave W, Claresholm, AB T0L 0T0, Canada"},{"_id":"5a764d04e6b3984f243aa4ba","name":"Edson & District Healthcare Centre","inLine":0,"onTheWay":0,"lat":53.5916692,"lng":-116.4068292,"address":"3837 6 Ave, Edson, AB T7E 0C5, Canada"},{"_id":"5a764d04e6b3984f243aa4bb","name":"Misericordia Community Hospital","inLine":0,"onTheWay":0,"lat":53.520874,"lng":-113.6118775,"address":"16940 87 Ave NW, Edmonton, AB T5R 4H5, Canada"},{"_id":"5a764d04e6b3984f243aa4bc","name":"St Joseph's Auxiliary Hospital","inLine":0,"onTheWay":0,"lat":53.4595342,"lng":-113.506051,"address":"10707 29 Ave NW, Edmonton, AB T6J 6W1, Canada"},{"_id":"5a764d04e6b3984f243aa4bd","name":"Hardisty Health Centre","inLine":0,"onTheWay":0,"lat":52.6691528,"lng":-111.307609,"address":"4531 47 St, Hardisty, AB T0B 1V0, Canada"},{"_id":"5a764d04e6b3984f243aa4be","name":"Grey Nuns Community Hospital & Health Centre","inLine":0,"onTheWay":0,"lat":53.461899,"lng":-113.429664,"address":"1100 Youville Dr W Northwest, Edmonton, AB T6L 5X8, Canada"},{"_id":"5a764d04e6b3984f243aa4bf","name":"Richmond Road Diagnostic & Treatment Centre (RRDTC)","inLine":0,"onTheWay":0,"lat":51.0366092,"lng":-114.109674,"address":"1820 Richmond Rd SW, Calgary, AB T2T 5C7, Canada"},{"_id":"5a764d04e6b3984f243aa4c0","name":"Lacombe Hospital and Care Centre","inLine":0,"onTheWay":0,"lat":52.4607254,"lng":-113.7407883,"address":"5430 47 Ave, Lacombe, AB T4L 1G8, Canada"},{"_id":"5a764d04e6b3984f243aa4c1","name":"Innisfail Health Centre","inLine":0,"onTheWay":0,"lat":52.019015,"lng":-113.9514399,"address":"5023 42 St, Innisfail, AB T4G 1A9, Canada"},{"_id":"5a764d04e6b3984f243aa4c2","name":"Ponoka Hospital and Care Centre","inLine":0,"onTheWay":0,"lat":52.684679,"lng":-113.589569,"address":"5800 57 Ave, Ponoka, AB T4J 1P1, Canada"},{"_id":"5a764d04e6b3984f243aa4c3","name":"Canmore General Hospital","inLine":0,"onTheWay":0,"lat":51.092305,"lng":-115.351595,"address":"1100 Hospital Pl, Canmore, AB T1W 1N2, Canada"},{"_id":"5a764d04e6b3984f243aa4c4","name":"Fort Saskatchewan Community Hospital","inLine":0,"onTheWay":0,"lat":53.691895,"lng":-113.210822,"address":"9401 86 Ave, Fort Saskatchewan, AB T8L 0C6, Canada"},{"_id":"5a764d04e6b3984f243aa4c5","name":"Olds Hospital and Care Centre","inLine":0,"onTheWay":0,"lat":51.8014343,"lng":-114.1177307,"address":"3901 57 Ave, Olds, AB T4H 1T4, Canada"},{"_id":"5a764d04e6b3984f243aa4c6","name":"Consort Health Centre","inLine":0,"onTheWay":0,"lat":52.0098603,"lng":-110.7820156,"address":"5410 52 Ave, Consort, AB T0C 1B0, Canada"},{"_id":"5a764d04e6b3984f243aa4c7","name":"Three Hills Health Centre","inLine":0,"onTheWay":0,"lat":51.7082766,"lng":-113.2510333,"address":"1504 2 St N, Three Hills, AB T0M 2A0, Canada"},{"_id":"5a764d04e6b3984f243aa4c8","name":"Cardston Hospital","inLine":0,"onTheWay":0,"lat":49.201865,"lng":-113.3057959,"address":"144 2 St W, Cardston, AB T0K 0K0, Canada"},{"_id":"5a764d04e6b3984f243aa4c9","name":"Queen Elizabeth II Hospital","inLine":0,"onTheWay":0,"lat":51.7834854,"lng":-0.1886127,"address":"Howlands, Welwyn Garden City AL7 4HQ, UK"},{"_id":"5a764d04e6b3984f243aa4ca","name":"Sundre Hospital and Care Centre","inLine":0,"onTheWay":0,"lat":51.807484,"lng":-114.635839,"address":"709 1 St NE, Sundre, AB T0M 1X0, Canada"},{"_id":"5a764d04e6b3984f243aa4cb","name":"Taber Hospital","inLine":0,"onTheWay":0,"lat":49.78490919999999,"lng":-112.1650544,"address":"4326 50 Ave, Taber, AB T1G 1N9, Canada"},{"_id":"5a764d04e6b3984f243aa4cc","name":"Medicine Hat Regional Hospital","inLine":0,"onTheWay":0,"lat":50.0348711,"lng":-110.702914,"address":"666 5 St SW, Medicine Hat, AB T1A 4H6, Canada"},{"_id":"5a764d04e6b3984f243aa4cd","name":"Foothills Medical Centre (FMC)","inLine":0,"onTheWay":0,"lat":51.064491,"lng":-114.134061,"address":"1403 29 St NW, Calgary, AB T2N 2T9, Canada"},{"_id":"5a764d04e6b3984f243aa4ce","name":"Chinook Regional Hospital","inLine":0,"onTheWay":0,"lat":49.68481550000001,"lng":-112.8160434,"address":"960 19 St S, Lethbridge, AB T1J 1W5, Canada"},{"_id":"5a764d04e6b3984f243aa4cf","name":"Viking Health Centre","inLine":0,"onTheWay":0,"lat":53.100063,"lng":-111.7772,"address":"5110 57 Ave, Viking, AB T0B 4N0, Canada"},{"_id":"5a764d04e6b3984f243aa4d0","name":"Stony Plain Municipal Hospital","inLine":0,"onTheWay":0,"lat":53.537459,"lng":-113.9767078,"address":"4405 S Park Dr, Stony Plain, AB T7Z 2M7, Canada"},{"_id":"5a764d04e6b3984f243aa4d1","name":"Hanna Health Centre","inLine":0,"onTheWay":0,"lat":51.650247,"lng":-111.9280003,"address":"904 Centre Street N, Hanna, AB T0J 1P0, Canada"},{"_id":"5a764d04e6b3984f243aa4d2","name":"Royal Alexandra Hospital","inLine":0,"onTheWay":0,"lat":53.5568536,"lng":-113.4967364,"address":"10240 Kingsway NW, Edmonton, AB T5H 3V9, Canada"},{"_id":"5a764d04e6b3984f243aa4d3","name":"Rocky Mountain House Hospital and Care Centre","inLine":0,"onTheWay":0,"lat":52.3785683,"lng":-114.9202054,"address":"5016 52 Ave, Rocky Mountain House, AB T4T 1T2, Canada"},{"_id":"5a764d04e6b3984f243aa4d4","name":"Mayerthorpe Healthcare Centre","inLine":0,"onTheWay":0,"lat":53.9483598,"lng":-115.1319444,"address":"4417 45 St, Mayerthorpe, AB T0E 1N0, Canada"},{"_id":"5a764d04e6b3984f243aa4d5","name":"Daysland Health Centre","inLine":0,"onTheWay":0,"lat":52.868821,"lng":-112.272956,"address":"5920 51 Ave, Daysland, AB T0B 1A0, Canada"},{"_id":"5a764d04e6b3984f243aa4d6","name":"Red Deer Regional Hospital and Care Centre","inLine":0,"onTheWay":0,"lat":52.2612252,"lng":-113.8180643,"address":"3942 50a Ave, Red Deer, AB T4N 4E7, Canada"},{"_id":"5a764d04e6b3984f243aa4d7","name":"Wainwright Health Centre","inLine":0,"onTheWay":0,"lat":52.8412448,"lng":-110.8665766,"address":"530 6 Ave, Wainwright, AB T9W 1R6, Canada"},{"_id":"5a764d04e6b3984f243aa4d8","name":"Wetaskiwin Hospital and Care Centre","inLine":0,"onTheWay":0,"lat":52.9867882,"lng":-113.3681024,"address":"6910 47 St, Wetaskiwin, AB T9A 3N3, Canada"},{"_id":"5a764d04e6b3984f243aa4d9","name":"Devon General Hospital","inLine":0,"onTheWay":0,"lat":53.3515216,"lng":-113.7310094,"address":"101 Erie St S, Devon, AB T9G 1A6, Canada"},{"_id":"5a764d04e6b3984f243aa4da","name":"Centennial Centre for Mental Health and Brain Injury (Alberta Hospital Ponoka)","inLine":0,"onTheWay":0,"lat":52.6493482,"lng":-113.5745841,"address":"46 Street S, Ponoka, AB T4J 1R8, Canada"},{"_id":"5a764d04e6b3984f243aa4db","name":"Drayton Valley Hospital and Care Centre","inLine":0,"onTheWay":0,"lat":53.211841,"lng":-114.969193,"address":"4550 Madsen Ave, Drayton Valley, AB T7A 1N8, Canada"},{"_id":"5a764d04e6b3984f243aa4dc","name":"Westlock Healthcare Centre","inLine":0,"onTheWay":0,"lat":54.1472287,"lng":-113.853507,"address":"10220 93 St, Westlock, AB T7P 2G4, Canada"},{"_id":"5a764d04e6b3984f243aa4dd","name":"Stettler Hospital and Care Centre","inLine":0,"onTheWay":0,"lat":52.32380389999999,"lng":-112.7235137,"address":"5912 47 Ave, Stettler, AB T0C 2L0, Canada"},{"_id":"5a764d04e6b3984f243aa4de","name":"Whitecourt Healthcare Centre","inLine":0,"onTheWay":0,"lat":54.1312554,"lng":-115.6745339,"address":"20 Sunset Blvd, Whitecourt, AB T7S 1M8, Canada"},{"_id":"5a764d04e6b3984f243aa4df","name":"Stony Plain Municipal Hospital","inLine":0,"onTheWay":0,"lat":53.537459,"lng":-113.9767078,"address":"4405 S Park Dr, Stony Plain, AB T7Z 2M7, Canada"},{"_id":"5a764d04e6b3984f243aa4e0","name":"Tom Baker Cancer Centre (TBCC)","inLine":0,"onTheWay":0,"lat":51.06308910000001,"lng":-114.1335698,"address":"1331 29 St NW, Calgary, AB T2N 4N2, Canada"},{"_id":"5a764d04e6b3984f243aa4e1","name":"Killam Health Centre","inLine":0,"onTheWay":0,"lat":52.7888544,"lng":-111.8593338,"address":"5203 49 Ave, Killam, AB T0B 2L0, Canada"},{"_id":"5a764d04e6b3984f243aa4e2","name":"Vermilion Health Centre","inLine":0,"onTheWay":0,"lat":29.9990715,"lng":-92.2087852,"address":"14008 Cheneau Rd, Kaplan, LA 70548, USA"},{"_id":"5a764d04e6b3984f243aa4e3","name":"Alberta Hospital Edmonton","inLine":0,"onTheWay":0,"lat":53.6372541,"lng":-113.3736936,"address":"17480 Fort Road, Edmonton, AB T5J 2J7, Canada"},{"_id":"5a764d04e6b3984f243aa4e4","name":"St. Paul Health Care Centre","inLine":0,"onTheWay":0,"lat":39.74307,"lng":-104.951594,"address":"1667 St Paul St, Denver, CO 80206, USA"},{"_id":"5a764d04e6b3984f243aa4e5","name":"Sturgeon Community Hospital & Health Center","inLine":0,"onTheWay":0,"lat":44.8505477,"lng":-87.3477743,"address":"1910 Alabama St, Sturgeon Bay, WI 54235, USA"},{"_id":"5a764d04e6b3984f243aa4e6","name":"St. Mary's Health Centre","inLine":0,"onTheWay":0,"lat":26.7566707,"lng":-80.06291809999999,"address":"901 45th St, West Palm Beach, FL 33407, USA"},{"_id":"5a764d04e6b3984f243aa4e7","name":"St. Joseph's General Hospital","inLine":0,"onTheWay":0,"lat":46.3848332,"lng":-82.6609235,"address":"70 Spine Rd, Elliot Lake, ON P5A 1X2, Canada"},{"_id":"5a764d04e6b3984f243aa4e8","name":"Leduc Community Hospital","inLine":0,"onTheWay":0,"lat":53.2548182,"lng":-113.5454391,"address":"4210 48 St, Leduc, AB T9E 5Z3, Canada"},{"_id":"5a764d04e6b3984f243aa4e9","name":"Coronation Hospital and Care Centre","inLine":0,"onTheWay":0,"lat":52.0962638,"lng":-111.459203,"address":"5000 Municipal Rd, Coronation, AB T0C 1C0, Canada"},{"_id":"5a764d04e6b3984f243aa4ea","name":"Pincher Creek Hospital","inLine":0,"onTheWay":0,"lat":49.4932914,"lng":-113.9469567,"address":"1222 Bev McLachlin Dr, Pincher Creek, AB T0K 1W0, Canada"},{"_id":"5a764d04e6b3984f243aa4eb","name":"Bassano Health Centre","inLine":0,"onTheWay":0,"lat":50.78976669999999,"lng":-112.4614377,"address":"608 5 Ave, Bassano, AB T0J 0B0, Canada"},{"_id":"5a764d04e6b3984f243aa4ec","name":"Beaverlodge Regional Hospital","inLine":0,"onTheWay":0,"lat":55.2136915,"lng":-119.425019,"address":"422 10a St, Beaverlodge, AB T0H 0C0, Canada"},{"_id":"5a764d04e6b3984f243aa4ed","name":"Rockyview General Hospital (RGH)","inLine":0,"onTheWay":0,"lat":50.9903099,"lng":-114.0974163,"address":"7007 14 St SW, Calgary, AB T2V 1P9, Canada"},{"_id":"5a764d04e6b3984f243aa4ee","name":"Tofield Health Centre","inLine":0,"onTheWay":0,"lat":53.372657,"lng":-112.651099,"address":"5543 44 St, Tofield, AB T0B 4J0, Canada"},{"_id":"5a764d04e6b3984f243aa4ef","name":"Fort Macleod Hospital","inLine":0,"onTheWay":0,"lat":49.7264265,"lng":-113.3938077,"address":"744 26 St S, Fort MacLeod, AB T0L 0Z0, Canada"},{"_id":"5a764d05e6b3984f243aa4f0","name":"Lloydminster Hospital (in Saskatchewan)","inLine":0,"onTheWay":0,"lat":53.2724701,"lng":-109.9895381,"address":"3820 43 Ave, Lloydminster, SK S9V 1Y5, Canada"},{"_id":"5a764d05e6b3984f243aa4f1","name":"Big Country Health Centre","inLine":0,"onTheWay":0,"lat":43.086488,"lng":-79.834242,"address":"4080 Hall Rd, Binbrook, ON L0R 1C0, Canada"},{"_id":"5a764d05e6b3984f243aa4f2","name":"South Calgary Health Centre (SCHC)","inLine":0,"onTheWay":0,"lat":50.90256549999999,"lng":-114.0586109,"address":"31 Sunpark Plaza SE, Calgary, AB T2X 3W5, Canada"},{"_id":"5a764d05e6b3984f243aa4f3","name":"Sheldon M. Chumir Health Centre (SMCHC)","inLine":0,"onTheWay":0,"lat":51.0412428,"lng":-114.0721692,"address":"1213 4 St SW, Calgary, AB T2R 0X7, Canada"},{"_id":"5a764d05e6b3984f243aa4f4","name":"University of Alberta Hospital (Stollery Children's Hospital)","inLine":0,"onTheWay":0,"lat":53.52062609999999,"lng":-113.5251051,"address":"8440 112 St NW, Edmonton, AB T6G 2B7, Canada"},{"_id":"5a764d05e6b3984f243aa4f5","name":"Rimbey Hospital and Care Centre","inLine":0,"onTheWay":0,"lat":52.640315,"lng":-114.2461329,"address":"5228 50 Ave, Rimbey, AB T0C 2J0, Canada"},{"_id":"5a764d05e6b3984f243aa4f6","name":"Bonnyville Health Centre","inLine":0,"onTheWay":0,"lat":54.26372809999999,"lng":-110.7392959,"address":"5001 Lakeshore Dr, Bonnyville, AB T9N 2J7, Canada"},{"_id":"5a764d05e6b3984f243aa4f7","name":"Sacred Heart Community Health Centre","inLine":0,"onTheWay":0,"lat":30.4996687,"lng":-97.6879007,"address":"620 Round Rock W Dr, Round Rock, TX 78681, USA"},{"_id":"5a764d05e6b3984f243aa4f8","name":"Vulcan Community Health Centre","inLine":0,"onTheWay":0,"lat":50.3961012,"lng":-113.2588,"address":"610 Elizabeth St, Vulcan, AB T0L 2B0, Canada"},{"_id":"5a764d05e6b3984f243aa4f9","name":"Milk River Health Centre","inLine":0,"onTheWay":0,"lat":49.148799,"lng":-112.076851,"address":"517 Centre Ave NE, Milk River, AB T0K 1M0, Canada"},{"_id":"5a764d05e6b3984f243aa4fa","name":"Cold Lake Healthcare Centre","inLine":0,"onTheWay":0,"lat":54.4682368,"lng":-110.1965777,"address":"314 25 St, Cold Lake, AB T9M 1G6, Canada"},{"_id":"5a764d05e6b3984f243aa4fb","name":"St. Mary's Hospital","inLine":0,"onTheWay":0,"lat":32.2280654,"lng":-111.0003538,"address":"1601 W St Maryâ€™s Rd, Tucson, AZ 85745, USA"},{"_id":"5a764d05e6b3984f243aa4fc","name":"Grande Prairie Regional Hospital (2019)","inLine":0,"onTheWay":0,"lat":55.1807732,"lng":-118.8245757,"address":"10940 108 St Grande Prairie, AB T8V 7A9 108 St, Grande Prairie, AB T8V 7A9, Canada"}]
